{"type":"FeatureCollection","features":[{"type":"Feature","properties":{"OBJECTID_1":1,"OBJECTID":1,"BLDG_ID":1,"BLDG_NAME":"Guild Bldg","ADDRESS":"195 Leyden Street","CITY":"East Boston","ZIPCODE":"02128","CSP_SCH_ID":4061,"SCH_ID":4061,"SCH_NAME":"Guild Elementary","SCH_LABEL":"Guild","SCH_TYPE":"ES","SHARED":" ","COMPLEX":" ","Label":52,"TLT":3,"PL":"Grace","POINT_X":790128.152748,"POINT_Y":2967094.37762},"geometry":{"type":"Point","coordinates":[-71.00412057520259,42.38879868107347]}},{"type":"Feature","properties":{"OBJECTID_1":2,"OBJECTID":2,"BLDG_ID":3,"BLDG_NAME":"Kennedy, P Bldg","ADDRESS":"343 Saratoga Street","CITY":"East Boston","ZIPCODE":"02128","CSP_SCH_ID":4541,"SCH_ID":4541,"SCH_NAME":"Kennedy Patrick Elem","SCH_LABEL":"PJ Kennedy","SCH_TYPE":"ES","SHARED":" ","COMPLEX":" ","Label":72,"TLT":3,"PL":"Grace","POINT_X":783027.745829,"POINT_Y":2963317.53394},"geometry":{"type":"Point","coordinates":[-71.03048029238414,42.37854529839988]}},{"type":"Feature","properties":{"OBJECTID_1":3,"OBJECTID":3,"BLDG_ID":4,"BLDG_NAME":"Otis Bldg","ADDRESS":"218 Marion Street","CITY":"East Boston","ZIPCODE":"02128","CSP_SCH_ID":4322,"SCH_ID":4322,"SCH_NAME":"Otis Elementary","SCH_LABEL":"Otis","SCH_TYPE":"ES","SHARED":" ","COMPLEX":" ","Label":106,"TLT":3,"PL":"Grace","POINT_X":782112.823908,"POINT_Y":2962122.05733},"geometry":{"type":"Point","coordinates":[-71.03389058391973,42.375278677150646]}},{"type":"Feature","properties":{"OBJECTID_1":4,"OBJECTID":4,"BLDG_ID":6,"BLDG_NAME":"Odonnell Bldg","ADDRESS":"33 Trenton Street","CITY":"East Boston","ZIPCODE":"02128","CSP_SCH_ID":4543,"SCH_ID":4543,"SCH_NAME":"O'Donnell Elementary","SCH_LABEL":"O'Donnell","SCH_TYPE":"ES","SHARED":" ","COMPLEX":" ","Label":103,"TLT":3,"PL":"Grace","POINT_X":780994.000003,"POINT_Y":2963139.99999},"geometry":{"type":"Point","coordinates":[-71.03801071815423,42.37808861721215]}},{"type":"Feature","properties":{"OBJECTID_1":5,"OBJECTID":5,"BLDG_ID":7,"BLDG_NAME":"East Boston High Bldg","ADDRESS":"86 White Street","CITY":"East Boston","ZIPCODE":"02128","CSP_SCH_ID":1070,"SCH_ID":1070,"SCH_NAME":"East Boston High","SCH_LABEL":"East Boston HS","SCH_TYPE":"HS","SHARED":" ","COMPLEX":" ","Label":36,"TLT":2,"PL":"Joel","POINT_X":781823.000004,"POINT_Y":2964189.99999},"geometry":{"type":"Point","coordinates":[-71.03492143425565,42.38095745717991]}},{"type":"Feature","properties":{"OBJECTID_1":6,"OBJECTID":6,"BLDG_ID":8,"BLDG_NAME":"Umana / Barnes Bldg","ADDRESS":"312 Border Street","CITY":"East Boston","ZIPCODE":"02128","CSP_SCH_ID":4323,"SCH_ID":4323,"SCH_NAME":"Umana Academy","SCH_LABEL":"Umana Academy","SCH_TYPE":"K-8","SHARED":" ","COMPLEX":" ","Label":124,"TLT":3,"PL":"Grace","POINT_X":780367.000002,"POINT_Y":2963209.99999},"geometry":{"type":"Point","coordinates":[-71.04032982455948,42.37828999326145]}},{"type":"Feature","properties":{"OBJECTID_1":7,"OBJECTID":7,"BLDG_ID":10,"BLDG_NAME":"East Boston Eec Bldg","ADDRESS":"135 Gove Street","CITY":"East Boston","ZIPCODE":"02128","CSP_SCH_ID":4450,"SCH_ID":4450,"SCH_NAME":"East Boston EEC","SCH_LABEL":"East Boston EEC","SCH_TYPE":"ELC","SHARED":" ","COMPLEX":" ","Label":35,"TLT":1,"PL":"Marice","POINT_X":782062.000004,"POINT_Y":2960079.99998},"geometry":{"type":"Point","coordinates":[-71.03411994921963,42.369676022773504]}},{"type":"Feature","properties":{"OBJECTID_1":8,"OBJECTID":8,"BLDG_ID":11,"BLDG_NAME":"Mckay Bldg","ADDRESS":"122 Cottage Street","CITY":"East Boston","ZIPCODE":"02128","CSP_SCH_ID":4360,"SCH_ID":4360,"SCH_NAME":"McKay K-8","SCH_LABEL":"McKay K-8","SCH_TYPE":"K-8","SHARED":" ","COMPLEX":" ","Label":89,"TLT":3,"PL":"Grace","POINT_X":782012.09674,"POINT_Y":2959933.10018},"geometry":{"type":"Point","coordinates":[-71.0343075831713,42.36927367595972]}},{"type":"Feature","properties":{"OBJECTID_1":9,"OBJECTID":9,"BLDG_ID":12,"BLDG_NAME":"Adams Bldg","ADDRESS":"165 Webster Street","CITY":"East Boston","ZIPCODE":"02128","CSP_SCH_ID":4361,"SCH_ID":4361,"SCH_NAME":"Adams Elementary","SCH_LABEL":"Adams","SCH_TYPE":"ES","SHARED":" ","COMPLEX":" ","Label":1,"TLT":3,"PL":"Grace","POINT_X":781862.000004,"POINT_Y":2958580.00002},"geometry":{"type":"Point","coordinates":[-71.03489031104762,42.36556300509928]}},{"type":"Feature","properties":{"OBJECTID_1":10,"OBJECTID":10,"BLDG_ID":13,"BLDG_NAME":"Harvard-Kent","ADDRESS":"50 Bunker Hill Street","CITY":"Charlestown","ZIPCODE":"02129","CSP_SCH_ID":4280,"SCH_ID":4280,"SCH_NAME":"Harvard/Kent Elem","SCH_LABEL":"Harvard/Kent","SCH_TYPE":"ES","SHARED":" ","COMPLEX":" ","Label":55,"TLT":3,"PL":"Grace","POINT_X":775732.999998,"POINT_Y":2962579.99999},"geometry":{"type":"Point","coordinates":[-71.05749224520838,42.376628517401734]}},{"type":"Feature","properties":{"OBJECTID_1":11,"OBJECTID":11,"BLDG_ID":14,"BLDG_NAME":"Charlestown High Bldg #1 -  Main","ADDRESS":"240 Medford Street","CITY":"Charlestown","ZIPCODE":"02129","CSP_SCH_ID":1050,"SCH_ID":1050,"SCH_NAME":"Charlestown High","SCH_LABEL":"Charlestown HS","SCH_TYPE":"HS","SHARED":" ","COMPLEX":" ","Label":21,"TLT":4,"PL":"Jonathan","POINT_X":774759.589533,"POINT_Y":2963846.89176},"geometry":{"type":"Point","coordinates":[-71.0610705930195,42.380118677406166]}},{"type":"Feature","properties":{"OBJECTID_1":12,"OBJECTID":12,"BLDG_ID":15,"BLDG_NAME":"Edwards Bldg","ADDRESS":"28 Walker Street","CITY":"Charlestown","ZIPCODE":"02129","CSP_SCH_ID":2010,"SCH_ID":2010,"SCH_NAME":"Edwards Middle","SCH_LABEL":"Edwards MS","SCH_TYPE":"MS","SHARED":" ","COMPLEX":" ","Label":38,"TLT":3,"PL":"Grace","POINT_X":773096.999996,"POINT_Y":2963459.99999},"geometry":{"type":"Point","coordinates":[-71.06723124432146,42.379080355474635]}},{"type":"Feature","properties":{"OBJECTID_1":13,"OBJECTID":13,"BLDG_ID":16,"BLDG_NAME":"Warren-Prescott Bldg","ADDRESS":"50 School Street","CITY":"Charlestown","ZIPCODE":"02129","CSP_SCH_ID":4283,"SCH_ID":4283,"SCH_NAME":"Warren/Prescott K-8","SCH_LABEL":"Warren/Prescott K-8","SCH_TYPE":"K-8","SHARED":" ","COMPLEX":" ","Label":128,"TLT":3,"PL":"Grace","POINT_X":773855.716508,"POINT_Y":2963069.66485},"geometry":{"type":"Point","coordinates":[-71.06443059275854,42.37799867657933]}},{"type":"Feature","properties":{"OBJECTID_1":14,"OBJECTID":14,"BLDG_ID":17,"BLDG_NAME":"Eliot Bldg","ADDRESS":"16 Charter Street","CITY":"Boston","ZIPCODE":"02113","CSP_SCH_ID":4381,"SCH_ID":4381,"SCH_NAME":"Eliot K-8","SCH_LABEL":"Eliot K-8","SCH_TYPE":"K-8","SHARED":" ","COMPLEX":" ","Label":39,"TLT":1,"PL":"Marice","POINT_X":776866.999999,"POINT_Y":2958750.00002},"geometry":{"type":"Point","coordinates":[-71.0533696697075,42.36610274159122]}},{"type":"Feature","properties":{"OBJECTID_1":15,"OBJECTID":15,"BLDG_ID":21,"BLDG_NAME":"Abraham Lincoln Building","ADDRESS":"152 Arlington Street","CITY":"Boston","ZIPCODE":"02116","CSP_SCH_ID":1450,"SCH_ID":1450,"SCH_NAME":"Quincy Upper School","SCH_LABEL":"Quincy Upper (6-12)","SCH_TYPE":"K-12","SHARED":" ","COMPLEX":" ","Label":112,"TLT":4,"PL":"Jonathan","POINT_X":772661.999995,"POINT_Y":2952280.00001},"geometry":{"type":"Point","coordinates":[-71.06905024656571,42.34840829330527]}},{"type":"Feature","properties":{"OBJECTID_1":16,"OBJECTID":16,"BLDG_ID":22,"BLDG_NAME":"Boston HS Bldg","ADDRESS":"885 Washington Street","CITY":"Boston","ZIPCODE":"02111","CSP_SCH_ID":4650,"SCH_ID":4650,"SCH_NAME":"Quincy Lower (K-5)","SCH_LABEL":"Quincy Lower (K-5)","SCH_TYPE":"K-12","SHARED":" ","COMPLEX":" ","Label":111,"TLT":3,"PL":"Grace","POINT_X":773779.124764,"POINT_Y":2952129.10459},"geometry":{"type":"Point","coordinates":[-71.06492059233261,42.347978670540776]}},{"type":"Feature","properties":{"OBJECTID_1":17,"OBJECTID":17,"BLDG_ID":24,"BLDG_NAME":"Snowden Hs Bldg","ADDRESS":"150 Newbury Street","CITY":"Boston","ZIPCODE":"02116","CSP_SCH_ID":1200,"SCH_ID":1200,"SCH_NAME":"Snowden International","SCH_LABEL":"Snowden HS","SCH_TYPE":"HS","SHARED":" ","COMPLEX":" ","Label":116,"TLT":4,"PL":"Anthony","POINT_X":770246.740985,"POINT_Y":2953058.86974},"geometry":{"type":"Point","coordinates":[-71.07797059639059,42.35057867099926]}},{"type":"Feature","properties":{"OBJECTID_1":18,"OBJECTID":18,"BLDG_ID":26,"BLDG_NAME":"Mckinley Mackey Bldg","ADDRESS":"90 Warren Avenue","CITY":"Boston","ZIPCODE":"02116","CSP_SCH_ID":1291,"SCH_ID":1291,"SCH_NAME":"McKinley Elementary","SCH_LABEL":"McKinley Elem","SCH_TYPE":"Special","SHARED":"Shared","COMPLEX":" ","Label":90,"TLT":3,"PL":"Grace","POINT_X":771460.937914,"POINT_Y":2950801.81198},"geometry":{"type":"Point","coordinates":[-71.07352059401761,42.34436866956001]}},{"type":"Feature","properties":{"OBJECTID_1":19,"OBJECTID":19,"BLDG_ID":26,"BLDG_NAME":"Mckinley Mackey Bldg","ADDRESS":"90 Warren Avenue","CITY":"Boston","ZIPCODE":"02116","CSP_SCH_ID":1294,"SCH_ID":1294,"SCH_NAME":"McKinley So. End Acad","SCH_LABEL":"McKinley S. End Acad","SCH_TYPE":"Special","SHARED":"Shared","COMPLEX":" ","Label":93,"TLT":3,"PL":"Grace","POINT_X":771460.937914,"POINT_Y":2950801.81198},"geometry":{"type":"Point","coordinates":[-71.07352059401761,42.34436866956001]}},{"type":"Feature","properties":{"OBJECTID_1":20,"OBJECTID":20,"BLDG_ID":27,"BLDG_NAME":"Hurley Bldg","ADDRESS":"70 Worcester Street","CITY":"Boston","ZIPCODE":"02118","CSP_SCH_ID":4260,"SCH_ID":4260,"SCH_NAME":"Hurley K-8","SCH_LABEL":"Hurley K-8","SCH_TYPE":"K-8","SHARED":" ","COMPLEX":" ","Label":66,"TLT":1,"PL":"Marice","POINT_X":770330.236569,"POINT_Y":2948751.74884},"geometry":{"type":"Point","coordinates":[-71.07774059582495,42.33875866867037]}},{"type":"Feature","properties":{"OBJECTID_1":21,"OBJECTID":21,"BLDG_ID":28,"BLDG_NAME":"Blackstone Bldg","ADDRESS":"380 Shawmut Avenue","CITY":"Boston","ZIPCODE":"02118","CSP_SCH_ID":4640,"SCH_ID":4640,"SCH_NAME":"Blackstone Elementary","SCH_LABEL":"Blackstone","SCH_TYPE":"ES","SHARED":" ","COMPLEX":" ","Label":7,"TLT":3,"PL":"Grace","POINT_X":771753.999994,"POINT_Y":2949480.00001},"geometry":{"type":"Point","coordinates":[-71.07246106627973,42.34073755154492]}},{"type":"Feature","properties":{"OBJECTID_1":22,"OBJECTID":22,"BLDG_ID":31,"BLDG_NAME":"Mason Bldg","ADDRESS":"150 Norfolk Avenue","CITY":"Roxbury","ZIPCODE":"02119","CSP_SCH_ID":4121,"SCH_ID":4121,"SCH_NAME":"Mason Elementary","SCH_LABEL":"Mason","SCH_TYPE":"ES","SHARED":" ","COMPLEX":" ","Label":85,"TLT":1,"PL":"Marice","POINT_X":772085.999995,"POINT_Y":2944190},"geometry":{"type":"Point","coordinates":[-71.07133140528097,42.32621703137502]}},{"type":"Feature","properties":{"OBJECTID_1":23,"OBJECTID":23,"BLDG_ID":33,"BLDG_NAME":"Clap Bldg","ADDRESS":"35 Harvest Street","CITY":"Dorchester","ZIPCODE":"02125","CSP_SCH_ID":4531,"SCH_ID":4531,"SCH_NAME":"Clap Elementary","SCH_LABEL":"Clap","SCH_TYPE":"ES","SHARED":" ","COMPLEX":" ","Label":23,"TLT":1,"PL":"Christine","POINT_X":775644.999998,"POINT_Y":2943100},"geometry":{"type":"Point","coordinates":[-71.05819134420364,42.32317619487457]}},{"type":"Feature","properties":{"OBJECTID_1":24,"OBJECTID":24,"BLDG_ID":35,"BLDG_NAME":"Perkins Bldg","ADDRESS":"50 Burke Street","CITY":"South Boston","ZIPCODE":"02127","CSP_SCH_ID":4022,"SCH_ID":4022,"SCH_NAME":"Perkins Elementary","SCH_LABEL":"Perkins","SCH_TYPE":"ES","SHARED":" ","COMPLEX":" ","Label":108,"TLT":1,"PL":"Christine","POINT_X":777698.3368,"POINT_Y":2946078.06208},"geometry":{"type":"Point","coordinates":[-71.05054058589411,42.33131866845259]}},{"type":"Feature","properties":{"OBJECTID_1":25,"OBJECTID":25,"BLDG_ID":36,"BLDG_NAME":"South Boston Ed. Bldg","ADDRESS":"95 G Street","CITY":"South Boston","ZIPCODE":"02127","CSP_SCH_ID":1162,"SCH_ID":1162,"SCH_NAME":"Excel High","SCH_LABEL":"Excel HS","SCH_TYPE":"HS","SHARED":" ","COMPLEX":"S. Boston EC","Label":45,"TLT":1,"PL":"Christine","POINT_X":779223.039425,"POINT_Y":2946651.00928},"geometry":{"type":"Point","coordinates":[-71.04489058410691,42.33286866864984]}},{"type":"Feature","properties":{"OBJECTID_1":26,"OBJECTID":27,"BLDG_ID":37,"BLDG_NAME":"Tynan Bldg","ADDRESS":"650 E. Fourth Street","CITY":"South Boston","ZIPCODE":"02127","CSP_SCH_ID":4590,"SCH_ID":4590,"SCH_NAME":"Tynan Elementary","SCH_LABEL":"Tynan","SCH_TYPE":"ES","SHARED":" ","COMPLEX":" ","Label":123,"TLT":1,"PL":"Christine","POINT_X":780971.000003,"POINT_Y":2947390},"geometry":{"type":"Point","coordinates":[-71.03841128441215,42.33487070779559]}},{"type":"Feature","properties":{"OBJECTID_1":27,"OBJECTID":28,"BLDG_ID":38,"BLDG_NAME":"Perry Bldg","ADDRESS":"745 E. Seventh Street","CITY":"South Boston","ZIPCODE":"02127","CSP_SCH_ID":4592,"SCH_ID":4592,"SCH_NAME":"Perry K-8","SCH_LABEL":"Perry K-8","SCH_TYPE":"K-8","SHARED":" ","COMPLEX":" ","Label":109,"TLT":1,"PL":"Christine","POINT_X":783197.000005,"POINT_Y":2946400},"geometry":{"type":"Point","coordinates":[-71.03019874375977,42.33212076861555]}},{"type":"Feature","properties":{"OBJECTID_1":28,"OBJECTID":29,"BLDG_ID":39,"BLDG_NAME":"Russell Bldg","ADDRESS":"750 Columbia Road","CITY":"Dorchester","ZIPCODE":"02125","CSP_SCH_ID":4530,"SCH_ID":4530,"SCH_NAME":"Russell Elementary","SCH_LABEL":"Russell","SCH_TYPE":"ES","SHARED":" ","COMPLEX":" ","Label":115,"TLT":1,"PL":"Christine","POINT_X":775282.999998,"POINT_Y":2942080},"geometry":{"type":"Point","coordinates":[-71.0595494085743,42.320382411340674]}},{"type":"Feature","properties":{"OBJECTID_1":29,"OBJECTID":30,"BLDG_ID":42,"BLDG_NAME":"Orchard Gardens K-8","ADDRESS":"906 Albany Street","CITY":"Roxbury","ZIPCODE":"02119","CSP_SCH_ID":4680,"SCH_ID":4680,"SCH_NAME":"Orchard Gardens K-8","SCH_LABEL":"Orchard Gardens K-8","SCH_TYPE":"K-8","SHARED":" ","COMPLEX":" ","Label":105,"TLT":1,"PL":"Marice","POINT_X":770299.999993,"POINT_Y":2945660},"geometry":{"type":"Point","coordinates":[-71.07790901897478,42.330275209898616]}},{"type":"Feature","properties":{"OBJECTID_1":30,"OBJECTID":32,"BLDG_ID":131,"BLDG_NAME":"West Roxbury Ed. Bldg","ADDRESS":"1205 V.F.W. Parkway","CITY":"West Roxbury","ZIPCODE":"02132","CSP_SCH_ID":1256,"SCH_ID":1256,"SCH_NAME":"West Roxbury Academy","SCH_LABEL":"W. Roxbury Acad","SCH_TYPE":"HS","SHARED":"Shared","COMPLEX":" ","Label":129,"TLT":2,"PL":"Joel","POINT_X":744291.893473,"POINT_Y":2928051.28111},"geometry":{"type":"Point","coordinates":[-71.17434062400517,42.28226865420588]}},{"type":"Feature","properties":{"OBJECTID_1":31,"OBJECTID":34,"BLDG_ID":34,"BLDG_NAME":"Gavin Bldg","ADDRESS":"215 Dorchester Street","CITY":"South Boston","ZIPCODE":"02127","CSP_SCH_ID":2450,"SCH_ID":2450,"SCH_NAME":"UP Academy Boston","SCH_LABEL":"UP Academy Boston","SCH_TYPE":"MS","SHARED":" ","COMPLEX":" ","Label":125,"TLT":1,"PL":"Christine","POINT_X":777724,"POINT_Y":2946900},"geometry":{"type":"Point","coordinates":[-71.05042965676314,42.33357372197066]}},{"type":"Feature","properties":{"OBJECTID_1":32,"OBJECTID":35,"BLDG_ID":44,"BLDG_NAME":"Wheatley Bldg","ADDRESS":"20 Kearsage Avenue","CITY":"Roxbury","ZIPCODE":"02119","CSP_SCH_ID":1410,"SCH_ID":1410,"SCH_NAME":"Boston Day and Evening Academy","SCH_LABEL":"BDEA","SCH_TYPE":"Special","SHARED":" ","COMPLEX":" ","Label":10,"TLT":4,"PL":"Freddie","POINT_X":769277.865976,"POINT_Y":2944471.83911},"geometry":{"type":"Point","coordinates":[-71.08171059688863,42.32702866604833]}},{"type":"Feature","properties":{"OBJECTID_1":33,"OBJECTID":36,"BLDG_ID":45,"BLDG_NAME":"Carter Center Bldg","ADDRESS":"396 Northampton Street","CITY":"Roxbury","ZIPCODE":"02118","CSP_SCH_ID":4261,"SCH_ID":4261,"SCH_NAME":"Carter Center","SCH_LABEL":"Carter Center","SCH_TYPE":"Special","SHARED":" ","COMPLEX":" ","Label":19,"TLT":1,"PL":"Marice","POINT_X":768677.999992,"POINT_Y":2949400.00001},"geometry":{"type":"Point","coordinates":[-71.08383997549595,42.340559774424385]}},{"type":"Feature","properties":{"OBJECTID_1":34,"OBJECTID":37,"BLDG_ID":47,"BLDG_NAME":"Madison Park Bldg #1","ADDRESS":"75 Malcolm X Blvd","CITY":"Roxbury","ZIPCODE":"02120","CSP_SCH_ID":1210,"SCH_ID":1210,"SCH_NAME":"Madison Park High","SCH_LABEL":"Madison Park HS","SCH_TYPE":"HS","SHARED":" ","COMPLEX":" ","Label":82,"TLT":4,"PL":"Ligia","POINT_X":766949.45791,"POINT_Y":2946184.2737},"geometry":{"type":"Point","coordinates":[-71.09029059972147,42.33175866666857]}},{"type":"Feature","properties":{"OBJECTID_1":35,"OBJECTID":38,"BLDG_ID":48,"BLDG_NAME":"Madison Park Bldg #3 - O'Bryant","ADDRESS":"55 Malcolm X Blvd","CITY":"Roxbury","ZIPCODE":"02120","CSP_SCH_ID":1030,"SCH_ID":1030,"SCH_NAME":"O'Bryant Math & Sci.","SCH_LABEL":"O'Bryant School","SCH_TYPE":"6/7-12","SHARED":" ","COMPLEX":" ","Label":102,"TLT":4,"PL":"Anthony","POINT_X":767354.011766,"POINT_Y":2946288.25978},"geometry":{"type":"Point","coordinates":[-71.08879259908207,42.332038667227394]}},{"type":"Feature","properties":{"OBJECTID_1":36,"OBJECTID":39,"BLDG_ID":49,"BLDG_NAME":"Timilty Bldg","ADDRESS":"205 Roxbury Street","CITY":"Roxbury","ZIPCODE":"02119","CSP_SCH_ID":2040,"SCH_ID":2040,"SCH_NAME":"Timilty Middle","SCH_LABEL":"Timilty MS","SCH_TYPE":"MS","SHARED":" ","COMPLEX":" ","Label":120,"TLT":2,"PL":"Kelly","POINT_X":766767.96863,"POINT_Y":2945687.78285},"geometry":{"type":"Point","coordinates":[-71.09097059931554,42.330398666249295]}},{"type":"Feature","properties":{"OBJECTID_1":37,"OBJECTID":40,"BLDG_ID":50,"BLDG_NAME":"Hale Bldg","ADDRESS":"51 Cedar Street","CITY":"Roxbury","ZIPCODE":"02119","CSP_SCH_ID":4113,"SCH_ID":4113,"SCH_NAME":"Hale Elementary","SCH_LABEL":"Hale","SCH_TYPE":"ES","SHARED":" ","COMPLEX":" ","Label":53,"TLT":1,"PL":"Marice","POINT_X":766757.515094,"POINT_Y":2943920.26672},"geometry":{"type":"Point","coordinates":[-71.09104059939536,42.32554866561233]}},{"type":"Feature","properties":{"OBJECTID_1":38,"OBJECTID":41,"BLDG_ID":51,"BLDG_NAME":"Lewis Bldg","ADDRESS":"131 Walnut Avenue","CITY":"Roxbury","ZIPCODE":"02119","CSP_SCH_ID":4242,"SCH_ID":4242,"SCH_NAME":"Higginson/Lewis (3-8)","SCH_LABEL":"Higginson/Lewis (3-8)","SCH_TYPE":"K-8","SHARED":" ","COMPLEX":" ","Label":62,"TLT":1,"PL":"Marice","POINT_X":768044.999991,"POINT_Y":2942250},"geometry":{"type":"Point","coordinates":[-71.08630956667422,42.32094834318214]}},{"type":"Feature","properties":{"OBJECTID_1":39,"OBJECTID":42,"BLDG_ID":53,"BLDG_NAME":"Blue Hill Ave Eec Bldg","ADDRESS":"263 Blue Hill Ave","CITY":"Roxbury","ZIPCODE":"02119","CSP_SCH_ID":4460,"SCH_ID":4460,"SCH_NAME":"Haynes EEC","SCH_LABEL":"Haynes EEC","SCH_TYPE":"ELC","SHARED":" ","COMPLEX":" ","Label":56,"TLT":1,"PL":"Marice","POINT_X":770048.999993,"POINT_Y":2940080},"geometry":{"type":"Point","coordinates":[-71.07893912909216,42.31496685447941]}},{"type":"Feature","properties":{"OBJECTID_1":40,"OBJECTID":43,"BLDG_ID":54,"BLDG_NAME":"Trotter Bldg","ADDRESS":"135 Humboldt Avenue","CITY":"Dorchester","ZIPCODE":"02121","CSP_SCH_ID":4580,"SCH_ID":4580,"SCH_NAME":"Trotter K-8","SCH_LABEL":"Trotter K-8","SCH_TYPE":"K-8","SHARED":" ","COMPLEX":" ","Label":122,"TLT":2,"PL":"Kelly","POINT_X":767639.999991,"POINT_Y":2940350},"geometry":{"type":"Point","coordinates":[-71.08784105429771,42.315740034881784]}},{"type":"Feature","properties":{"OBJECTID_1":41,"OBJECTID":44,"BLDG_ID":55,"BLDG_NAME":"Boston Latin Academy Bldg","ADDRESS":"205 Townsend Street","CITY":"Boston","ZIPCODE":"02121","CSP_SCH_ID":1020,"SCH_ID":1020,"SCH_NAME":"Boston Latin Academy","SCH_LABEL":"Boston Latin Acad","SCH_TYPE":"6/7-12","SHARED":" ","COMPLEX":" ","Label":13,"TLT":4,"PL":"Jonathan","POINT_X":768542.714999,"POINT_Y":2940506.93881},"geometry":{"type":"Point","coordinates":[-71.08450059643428,42.316158664034354]}},{"type":"Feature","properties":{"OBJECTID_1":42,"OBJECTID":45,"BLDG_ID":56,"BLDG_NAME":"Ellis Bldg","ADDRESS":"302 Walnut Avenue","CITY":"Roxbury","ZIPCODE":"02119","CSP_SCH_ID":4240,"SCH_ID":4240,"SCH_NAME":"Ellis Elementary","SCH_LABEL":"Ellis","SCH_TYPE":"ES","SHARED":" ","COMPLEX":" ","Label":41,"TLT":1,"PL":"Marice","POINT_X":766272.999989,"POINT_Y":2940560},"geometry":{"type":"Point","coordinates":[-71.09289159544575,42.316334299557376]}},{"type":"Feature","properties":{"OBJECTID_1":43,"OBJECTID":46,"BLDG_ID":57,"BLDG_NAME":"Winthrop Bldg","ADDRESS":"35 Brookford Street","CITY":"Dorchester","ZIPCODE":"02125","CSP_SCH_ID":4052,"SCH_ID":4052,"SCH_NAME":"Winthrop Elementary","SCH_LABEL":"Winthrop","SCH_TYPE":"ES","SHARED":" ","COMPLEX":" ","Label":132,"TLT":2,"PL":"Joel","POINT_X":770939.048026,"POINT_Y":2941263.61709},"geometry":{"type":"Point","coordinates":[-71.07562660083664,42.3182026505098]}},{"type":"Feature","properties":{"OBJECTID_1":44,"OBJECTID":47,"BLDG_ID":58,"BLDG_NAME":"King Bldg","ADDRESS":"77 Lawrence Avenue","CITY":"Dorchester","ZIPCODE":"02121","CSP_SCH_ID":4055,"SCH_ID":4055,"SCH_NAME":"King K-8","SCH_LABEL":"King K-8","SCH_TYPE":"K-8","SHARED":" ","COMPLEX":" ","Label":76,"TLT":1,"PL":"Marice","POINT_X":770797.393082,"POINT_Y":2938747.29008},"geometry":{"type":"Point","coordinates":[-71.07619659348022,42.31129966337307]}},{"type":"Feature","properties":{"OBJECTID_1":45,"OBJECTID":48,"BLDG_ID":59,"BLDG_NAME":"Frederick Middle","ADDRESS":"270 Columbia Road","CITY":"Dorchester","ZIPCODE":"02121","CSP_SCH_ID":2360,"SCH_ID":2360,"SCH_NAME":"Frederick Pilot Middle","SCH_LABEL":"Frederick MS","SCH_TYPE":"MS","SHARED":" ","COMPLEX":" ","Label":47,"TLT":1,"PL":"Christine","POINT_X":771013.999994,"POINT_Y":2937930},"geometry":{"type":"Point","coordinates":[-71.07541082496643,42.30905402291017]}},{"type":"Feature","properties":{"OBJECTID_1":46,"OBJECTID":49,"BLDG_ID":62,"BLDG_NAME":"Holland Bldg","ADDRESS":"85 Olney Street","CITY":"Dorchester","ZIPCODE":"02121","CSP_SCH_ID":4250,"SCH_ID":4250,"SCH_NAME":"UP Academy Holland","SCH_LABEL":"UP Holland","SCH_TYPE":"ES","SHARED":" ","COMPLEX":" ","Label":63,"TLT":1,"PL":"Christine","POINT_X":771439.999994,"POINT_Y":2936679.99999},"geometry":{"type":"Point","coordinates":[-71.07385901865639,42.305618129084884]}},{"type":"Feature","properties":{"OBJECTID_1":47,"OBJECTID":50,"BLDG_ID":63,"BLDG_NAME":"Mather Bldg","ADDRESS":"1 Parish Street","CITY":"Dorchester","ZIPCODE":"02122","CSP_SCH_ID":4350,"SCH_ID":4350,"SCH_NAME":"Mather Elementary","SCH_LABEL":"Mather","SCH_TYPE":"ES","SHARED":" ","COMPLEX":" ","Label":86,"TLT":2,"PL":"Kelly","POINT_X":774909.999997,"POINT_Y":2937710},"geometry":{"type":"Point","coordinates":[-71.06101177191944,42.30839621193607]}},{"type":"Feature","properties":{"OBJECTID_1":48,"OBJECTID":52,"BLDG_ID":67,"BLDG_NAME":"Marshall Bldg","ADDRESS":"35 Westville Street","CITY":"Dorchester","ZIPCODE":"02124","CSP_SCH_ID":4345,"SCH_ID":4345,"SCH_NAME":"UP Academy Charter School of Dorchester","SCH_LABEL":"UP Academy of Dorchester","SCH_TYPE":"K-8","SHARED":" ","COMPLEX":" ","Label":126,"TLT":1,"PL":"Christine","POINT_X":772296.999995,"POINT_Y":2934609.99999},"geometry":{"type":"Point","coordinates":[-71.07072943172818,42.29992614712457]}},{"type":"Feature","properties":{"OBJECTID_1":49,"OBJECTID":53,"BLDG_ID":69,"BLDG_NAME":"Ohearn Bldg","ADDRESS":"1669 Dorchester Avenue","CITY":"Dorchester","ZIPCODE":"02122","CSP_SCH_ID":4391,"SCH_ID":4391,"SCH_NAME":"Henderson Lower (K0-1)","SCH_LABEL":"Henderson Lower (K0-1)","SCH_TYPE":"K-12","SHARED":" ","COMPLEX":" ","Label":57,"TLT":2,"PL":"Kelly","POINT_X":774609.999997,"POINT_Y":2932449.99999},"geometry":{"type":"Point","coordinates":[-71.062220644048,42.29396672680917]}},{"type":"Feature","properties":{"OBJECTID_1":50,"OBJECTID":54,"BLDG_ID":70,"BLDG_NAME":"Murphy Bldg","ADDRESS":"1 Worrell Street","CITY":"Dorchester","ZIPCODE":"02122","CSP_SCH_ID":4400,"SCH_ID":4400,"SCH_NAME":"Murphy K-8","SCH_LABEL":"Murphy K-8","SCH_TYPE":"K-8","SHARED":" ","COMPLEX":" ","Label":99,"TLT":2,"PL":"Kelly","POINT_X":778133.906432,"POINT_Y":2932555.6167},"geometry":{"type":"Point","coordinates":[-71.04919405841146,42.294206177035555]}},{"type":"Feature","properties":{"OBJECTID_1":51,"OBJECTID":55,"BLDG_ID":71,"BLDG_NAME":"Kenny Bldg","ADDRESS":"19 Oakton Avenue","CITY":"Dorchester","ZIPCODE":"02122","CSP_SCH_ID":4390,"SCH_ID":4390,"SCH_NAME":"Kenny Elementary","SCH_LABEL":"Kenny","SCH_TYPE":"ES","SHARED":" ","COMPLEX":" ","Label":73,"TLT":2,"PL":"Kelly","POINT_X":777066.999999,"POINT_Y":2929759.99999},"geometry":{"type":"Point","coordinates":[-71.05319153733501,42.28655025040779]}},{"type":"Feature","properties":{"OBJECTID_1":52,"OBJECTID":56,"BLDG_ID":72,"BLDG_NAME":"Wilson Bldg","ADDRESS":"18 Croftland Avenue","CITY":"Dorchester","ZIPCODE":"02124","CSP_SCH_ID":1140,"SCH_ID":1140,"SCH_NAME":"Henderson Upper (2-12)","SCH_LABEL":"Henderson Upper (2-12)","SCH_TYPE":"K-12","SHARED":" ","COMPLEX":" ","Label":58,"TLT":2,"PL":"Kelly","POINT_X":772644.999995,"POINT_Y":2927809.99999},"geometry":{"type":"Point","coordinates":[-71.06956992683907,42.28126172746035]}},{"type":"Feature","properties":{"OBJECTID_1":53,"OBJECTID":57,"BLDG_ID":73,"BLDG_NAME":"Taylor Bldg","ADDRESS":"1060 Morton Street","CITY":"Mattapan","ZIPCODE":"02126","CSP_SCH_ID":4151,"SCH_ID":4151,"SCH_NAME":"Taylor Elementary","SCH_LABEL":"Taylor","SCH_TYPE":"ES","SHARED":" ","COMPLEX":" ","Label":118,"TLT":2,"PL":"Kelly","POINT_X":770523.999993,"POINT_Y":2926559.99999},"geometry":{"type":"Point","coordinates":[-71.07743056603645,42.27786074625688]}},{"type":"Feature","properties":{"OBJECTID_1":54,"OBJECTID":58,"BLDG_ID":74,"BLDG_NAME":"Thompson Bldg","ADDRESS":"100 Maxwell Street","CITY":"Dorchester","ZIPCODE":"02124","CSP_SCH_ID":1990,"SCH_ID":1990,"SCH_NAME":"Boston International HS","SCH_LABEL":"Boston Intl HS","SCH_TYPE":"Special","SHARED":"Shared","COMPLEX":" ","Label":12,"TLT":4,"PL":"Anthony","POINT_X":769575.860504,"POINT_Y":2927851.90514},"geometry":{"type":"Point","coordinates":[-71.08091059414578,42.281418657595005]}},{"type":"Feature","properties":{"OBJECTID_1":55,"OBJECTID":59,"BLDG_ID":74,"BLDG_NAME":"Thompson Bldg","ADDRESS":"100 Maxwell Street","CITY":"Dorchester","ZIPCODE":"02124","CSP_SCH_ID":1991,"SCH_ID":1991,"SCH_NAME":"Newcomers Academy","SCH_LABEL":"Newcomers Acad","SCH_TYPE":"Special","SHARED":"Shared","COMPLEX":" ","Label":101,"TLT":4,"PL":"Anthony","POINT_X":769575.860504,"POINT_Y":2927851.90514},"geometry":{"type":"Point","coordinates":[-71.08091059414578,42.281418657595005]}},{"type":"Feature","properties":{"OBJECTID_1":56,"OBJECTID":60,"BLDG_ID":77,"BLDG_NAME":"Mildred Avenue Bldg","ADDRESS":"5 Mildred Avenue","CITY":"Mattapan","ZIPCODE":"02126","CSP_SCH_ID":4671,"SCH_ID":4671,"SCH_NAME":"Mildred Avenue K-8","SCH_LABEL":"Mildred Ave K-8","SCH_TYPE":"K-8","SHARED":" ","COMPLEX":" ","Label":96,"TLT":2,"PL":"Kelly","POINT_X":767008.111766,"POINT_Y":2926141.9524},"geometry":{"type":"Point","coordinates":[-71.09042959600346,42.27676065695961]}},{"type":"Feature","properties":{"OBJECTID_1":57,"OBJECTID":61,"BLDG_ID":78,"BLDG_NAME":"Dorchester Ed. Bldg #1 - Main","ADDRESS":"9 Peacevale Road","CITY":"Dorchester","ZIPCODE":"02124","CSP_SCH_ID":1460,"SCH_ID":1460,"SCH_NAME":"TechBoston Academy","SCH_LABEL":"TechBoston","SCH_TYPE":"6/7-12","SHARED":" ","COMPLEX":" ","Label":119,"TLT":4,"PL":"Anthony","POINT_X":770678.999993,"POINT_Y":2930179.99999},"geometry":{"type":"Point","coordinates":[-71.07679145494096,42.287792154500146]}},{"type":"Feature","properties":{"OBJECTID_1":58,"OBJECTID":62,"BLDG_ID":80,"BLDG_NAME":"Lee Bldg","ADDRESS":"155 Talbot Avenue","CITY":"Dorchester","ZIPCODE":"02124","CSP_SCH_ID":4290,"SCH_ID":4290,"SCH_NAME":"Lee K-8","SCH_LABEL":"Lee K-8","SCH_TYPE":"K-8","SHARED":" ","COMPLEX":" ","Label":78,"TLT":2,"PL":"Kelly","POINT_X":769700.926306,"POINT_Y":2931868.26054},"geometry":{"type":"Point","coordinates":[-71.08037541924556,42.29243810494426]}},{"type":"Feature","properties":{"OBJECTID_1":59,"OBJECTID":63,"BLDG_ID":79,"BLDG_NAME":"Fifield Bldg","ADDRESS":"25 Dunbar Ave.","CITY":"Dorchester","ZIPCODE":"02124","CSP_SCH_ID":4291,"SCH_ID":4291,"SCH_NAME":"Lee Academy (K1-3)","SCH_LABEL":"Lee Academy (K1-3)","SCH_TYPE":"ES","SHARED":" ","COMPLEX":" ","Label":77,"TLT":2,"PL":"Kelly","POINT_X":771704.710723,"POINT_Y":2929753.91644},"geometry":{"type":"Point","coordinates":[-71.07300862696997,42.28660892640341]}},{"type":"Feature","properties":{"OBJECTID_1":60,"OBJECTID":64,"BLDG_ID":82,"BLDG_NAME":"Holmes Bldg","ADDRESS":"40 School Street","CITY":"Dorchester","ZIPCODE":"02124","CSP_SCH_ID":4084,"SCH_ID":4084,"SCH_NAME":"Holmes Elementary","SCH_LABEL":"Holmes","SCH_TYPE":"ES","SHARED":" ","COMPLEX":" ","Label":64,"TLT":2,"PL":"Joel","POINT_X":770984.999994,"POINT_Y":2933459.99999},"geometry":{"type":"Point","coordinates":[-71.07560025929865,42.29678849876791]}},{"type":"Feature","properties":{"OBJECTID_1":61,"OBJECTID":65,"BLDG_ID":85,"BLDG_NAME":"Lewenberg Bldg","ADDRESS":"20 Outlook Road","CITY":"Mattapan","ZIPCODE":"02126","CSP_SCH_ID":4600,"SCH_ID":4600,"SCH_NAME":"Young Achievers K-8","SCH_LABEL":"Young Achievers K-8","SCH_TYPE":"K-8","SHARED":" ","COMPLEX":" ","Label":133,"TLT":2,"PL":"Kelly","POINT_X":765760.999989,"POINT_Y":2928159.99999},"geometry":{"type":"Point","coordinates":[-71.09500233426515,42.282314660088566]}},{"type":"Feature","properties":{"OBJECTID_1":62,"OBJECTID":66,"BLDG_ID":86,"BLDG_NAME":"Mattahunt Bldg","ADDRESS":"100 Hebron Street","CITY":"Mattapan","ZIPCODE":"02126","CSP_SCH_ID":4691,"SCH_ID":4691,"SCH_NAME":"Mattahunt Elementary","SCH_LABEL":"Mattahunt (K1-2)","SCH_TYPE":"ES","SHARED":" ","COMPLEX":" ","Label":87,"TLT":2,"PL":"Mary","POINT_X":763312.999987,"POINT_Y":2925779.99998},"geometry":{"type":"Point","coordinates":[-71.10408944316828,42.27581530982762]}},{"type":"Feature","properties":{"OBJECTID_1":63,"OBJECTID":67,"BLDG_ID":87,"BLDG_NAME":"Chittick Bldg","ADDRESS":"154 Ruskindale Road","CITY":"Mattapan","ZIPCODE":"02126","CSP_SCH_ID":4070,"SCH_ID":4070,"SCH_NAME":"Chittick Elementary","SCH_LABEL":"Chittick","SCH_TYPE":"ES","SHARED":" ","COMPLEX":" ","Label":22,"TLT":2,"PL":"Joel","POINT_X":763140.399858,"POINT_Y":2922660.97093},"geometry":{"type":"Point","coordinates":[-71.10478060042884,42.267258654407875]}},{"type":"Feature","properties":{"OBJECTID_1":64,"OBJECTID":69,"BLDG_ID":65,"BLDG_NAME":"Cleveland Bldg","ADDRESS":"11 Charles Street","CITY":"Dorchester","ZIPCODE":"02122","CSP_SCH_ID":1103,"SCH_ID":1103,"SCH_NAME":"Comm Acad Sci Health","SCH_LABEL":"CASH","SCH_TYPE":"HS","SHARED":"Shared","COMPLEX":" ","Label":24,"TLT":4,"PL":"Anthony","POINT_X":774729.490703,"POINT_Y":2935060.64311},"geometry":{"type":"Point","coordinates":[-71.061729420578,42.30112879103837]}},{"type":"Feature","properties":{"OBJECTID_1":65,"OBJECTID":70,"BLDG_ID":91,"BLDG_NAME":"Philbrick Bldg","ADDRESS":"40 Philbrick Street","CITY":"Roslindale","ZIPCODE":"02131","CSP_SCH_ID":4561,"SCH_ID":4561,"SCH_NAME":"Philbrick Elementary","SCH_LABEL":"Philbrick","SCH_TYPE":"ES","SHARED":" ","COMPLEX":" ","Label":110,"TLT":2,"PL":"Mary","POINT_X":759602.913871,"POINT_Y":2929259.10274},"geometry":{"type":"Point","coordinates":[-71.11774060613877,42.28540865691044]}},{"type":"Feature","properties":{"OBJECTID_1":66,"OBJECTID":71,"BLDG_ID":92,"BLDG_NAME":"Haley Bldg","ADDRESS":"570 American Legion Highway","CITY":"Roslindale","ZIPCODE":"02131","CSP_SCH_ID":4210,"SCH_ID":4210,"SCH_NAME":"Haley K-8","SCH_LABEL":"Haley K-8","SCH_TYPE":"K-8","SHARED":" ","COMPLEX":" ","Label":54,"TLT":2,"PL":"Joel","POINT_X":762311.957842,"POINT_Y":2929763.37301},"geometry":{"type":"Point","coordinates":[-71.10772060187031,42.286758657746155]}},{"type":"Feature","properties":{"OBJECTID_1":67,"OBJECTID":72,"BLDG_ID":93,"BLDG_NAME":"Parkman Bldg","ADDRESS":"25 Walk Hill Street","CITY":"Jamaica Plain","ZIPCODE":"02130","CSP_SCH_ID":4661,"SCH_ID":4661,"SCH_NAME":"BTU K-8 Pilot","SCH_LABEL":"BTU Pilot School K-8","SCH_TYPE":"K-8","SHARED":" ","COMPLEX":" ","Label":17,"TLT":2,"PL":"Kelly","POINT_X":760074.83,"POINT_Y":2932624.84345},"geometry":{"type":"Point","coordinates":[-71.11594060610987,42.294638658621004]}},{"type":"Feature","properties":{"OBJECTID_1":68,"OBJECTID":74,"BLDG_ID":96,"BLDG_NAME":"Roosevelt Bldg","ADDRESS":"95 Needham Road","CITY":"Hyde Park","ZIPCODE":"02136","CSP_SCH_ID":4192,"SCH_ID":4192,"SCH_NAME":"Roosevelt Upper (2-8)","SCH_LABEL":"Roosevelt Upper (2-8)","SCH_TYPE":"K-8","SHARED":" ","COMPLEX":" ","Label":114,"TLT":2,"PL":"Joel","POINT_X":758126.000014,"POINT_Y":2913780.00001},"geometry":{"type":"Point","coordinates":[-71.12345116616875,42.242950759657155]}},{"type":"Feature","properties":{"OBJECTID_1":69,"OBJECTID":75,"BLDG_ID":98,"BLDG_NAME":"Channing Bldg","ADDRESS":"35 Sunnyside Street","CITY":"Hyde Park","ZIPCODE":"02136","CSP_SCH_ID":4201,"SCH_ID":4201,"SCH_NAME":"Channing Elementary","SCH_LABEL":"Channing","SCH_TYPE":"ES","SHARED":" ","COMPLEX":" ","Label":20,"TLT":2,"PL":"Mary","POINT_X":755440.046859,"POINT_Y":2916930.68887},"geometry":{"type":"Point","coordinates":[-71.1333206089133,42.25162865099119]}},{"type":"Feature","properties":{"OBJECTID_1":70,"OBJECTID":76,"BLDG_ID":99,"BLDG_NAME":"Grew Bldg","ADDRESS":"40 Gordon Avenue","CITY":"Hyde Park","ZIPCODE":"02136","CSP_SCH_ID":4200,"SCH_ID":4200,"SCH_NAME":"Grew Elementary","SCH_LABEL":"Grew","SCH_TYPE":"ES","SHARED":" ","COMPLEX":" ","Label":51,"TLT":2,"PL":"Mary","POINT_X":757056.266893,"POINT_Y":2918810.81131},"geometry":{"type":"Point","coordinates":[-71.12732060707144,42.25676865106476]}},{"type":"Feature","properties":{"OBJECTID_1":71,"OBJECTID":77,"BLDG_ID":100,"BLDG_NAME":"Conley Bldg","ADDRESS":"450 Poplar Street","CITY":"Roslindale","ZIPCODE":"02131","CSP_SCH_ID":4080,"SCH_ID":4080,"SCH_NAME":"Conley Elementary","SCH_LABEL":"Conley","SCH_TYPE":"ES","SHARED":" ","COMPLEX":" ","Label":28,"TLT":2,"PL":"Joel","POINT_X":757100.630477,"POINT_Y":2925381.50997},"geometry":{"type":"Point","coordinates":[-71.12705060868437,42.27479865509246]}},{"type":"Feature","properties":{"OBJECTID_1":72,"OBJECTID":78,"BLDG_ID":101,"BLDG_NAME":"Irving Bldg","ADDRESS":"105 Cummins Highway","CITY":"Roslindale","ZIPCODE":"02131","CSP_SCH_ID":2140,"SCH_ID":2140,"SCH_NAME":"Irving Middle","SCH_LABEL":"Irving MS","SCH_TYPE":"MS","SHARED":" ","COMPLEX":" ","Label":67,"TLT":2,"PL":"Mary","POINT_X":757660.211213,"POINT_Y":2928605.45112},"geometry":{"type":"Point","coordinates":[-71.12493060728049,42.283638656670995]}},{"type":"Feature","properties":{"OBJECTID_1":73,"OBJECTID":79,"BLDG_ID":102,"BLDG_NAME":"Sumner Bldg","ADDRESS":"15 Basile Street","CITY":"Roslindale","ZIPCODE":"02131","CSP_SCH_ID":4560,"SCH_ID":4560,"SCH_NAME":"Sumner Elementary","SCH_LABEL":"Sumner","SCH_TYPE":"ES","SHARED":" ","COMPLEX":" ","Label":117,"TLT":2,"PL":"Joel","POINT_X":757138.874669,"POINT_Y":2929630.83493},"geometry":{"type":"Point","coordinates":[-71.12684060809596,42.286458657545964]}},{"type":"Feature","properties":{"OBJECTID_1":74,"OBJECTID":80,"BLDG_ID":105,"BLDG_NAME":"Fuller Bldg","ADDRESS":"25 Glen Road","CITY":"Jamaica Plain","ZIPCODE":"02130","CSP_SCH_ID":1340,"SCH_ID":1340,"SCH_NAME":"Community Academy","SCH_LABEL":"Community Acad","SCH_TYPE":"Special","SHARED":" ","COMPLEX":" ","Label":25,"TLT":4,"PL":"Freddie","POINT_X":763418.969363,"POINT_Y":2937847.759},"geometry":{"type":"Point","coordinates":[-71.10349060174734,42.30892866266553]}},{"type":"Feature","properties":{"OBJECTID_1":75,"OBJECTID":81,"BLDG_ID":107,"BLDG_NAME":"Hernandez Bldg","ADDRESS":"61 School Street","CITY":"Roxbury","ZIPCODE":"02119","CSP_SCH_ID":4053,"SCH_ID":4053,"SCH_NAME":"Hernandez K-8","SCH_LABEL":"Hernandez K-8","SCH_TYPE":"K-8","SHARED":" ","COMPLEX":" ","Label":60,"TLT":3,"PL":"Alex","POINT_X":764862.999988,"POINT_Y":2939680},"geometry":{"type":"Point","coordinates":[-71.09812020643957,42.31393788327679]}},{"type":"Feature","properties":{"OBJECTID_1":76,"OBJECTID":82,"BLDG_ID":108,"BLDG_NAME":"English Hs Bldg","ADDRESS":"144 Mcbride Street","CITY":"Jamaica Plain","ZIPCODE":"02130","CSP_SCH_ID":1080,"SCH_ID":1080,"SCH_NAME":"English High","SCH_LABEL":"English HS","SCH_TYPE":"HS","SHARED":" ","COMPLEX":" ","Label":43,"TLT":4,"PL":"Jonathan","POINT_X":761771.152625,"POINT_Y":2936776.03919},"geometry":{"type":"Point","coordinates":[-71.10960060443752,42.30600866079933]}},{"type":"Feature","properties":{"OBJECTID_1":77,"OBJECTID":83,"BLDG_ID":109,"BLDG_NAME":"Mendell Bldg","ADDRESS":"164 School Street","CITY":"Roxbury","ZIPCODE":"02119","CSP_SCH_ID":4370,"SCH_ID":4370,"SCH_NAME":"Mendell Elementary","SCH_LABEL":"Mendell","SCH_TYPE":"ES","SHARED":" ","COMPLEX":" ","Label":94,"TLT":3,"PL":"Alex","POINT_X":763914.501299,"POINT_Y":2940630.62774},"geometry":{"type":"Point","coordinates":[-71.1016106025806,42.316558664339304]}},{"type":"Feature","properties":{"OBJECTID_1":78,"OBJECTID":84,"BLDG_ID":110,"BLDG_NAME":"Kennedy, J  Bldg","ADDRESS":"7 Bolster Street","CITY":"Jamaica Plain","ZIPCODE":"02130","CSP_SCH_ID":4270,"SCH_ID":4270,"SCH_NAME":"Kennedy John F Elemen","SCH_LABEL":"JF Kennedy","SCH_TYPE":"ES","SHARED":" ","COMPLEX":" ","Label":71,"TLT":3,"PL":"Alex","POINT_X":762761.999986,"POINT_Y":2942530},"geometry":{"type":"Point","coordinates":[-71.10583938257344,42.321785327085706]}},{"type":"Feature","properties":{"OBJECTID_1":79,"OBJECTID":85,"BLDG_ID":111,"BLDG_NAME":"Hennigan Bldg","ADDRESS":"200 Heath Street","CITY":"Jamaica Plain","ZIPCODE":"02130","CSP_SCH_ID":4231,"SCH_ID":4231,"SCH_NAME":"West Zone ELC","SCH_LABEL":"West Zone ELC","SCH_TYPE":"ELC","SHARED":"Shared","COMPLEX":" ","Label":130,"TLT":3,"PL":"Alex","POINT_X":762457.929921,"POINT_Y":2944171.21852},"geometry":{"type":"Point","coordinates":[-71.10693577080225,42.32629275723332]}},{"type":"Feature","properties":{"OBJECTID_1":80,"OBJECTID":86,"BLDG_ID":113,"BLDG_NAME":"Tobin Bldg","ADDRESS":"40 Smith Street","CITY":"Roxbury","ZIPCODE":"02120","CSP_SCH_ID":4570,"SCH_ID":4570,"SCH_NAME":"Tobin K-8","SCH_LABEL":"Tobin K-8","SCH_TYPE":"K-8","SHARED":" ","COMPLEX":" ","Label":121,"TLT":3,"PL":"Alex","POINT_X":764784.166036,"POINT_Y":2946633.15152},"geometry":{"type":"Point","coordinates":[-71.09829060280723,42.333018667196676]}},{"type":"Feature","properties":{"OBJECTID_1":81,"OBJECTID":87,"BLDG_ID":115,"BLDG_NAME":"Boston Latin School Bldg","ADDRESS":"78 Avenue Louis Pasteur","CITY":"Boston","ZIPCODE":"02115","CSP_SCH_ID":1010,"SCH_ID":1010,"SCH_NAME":"Boston Latin School","SCH_LABEL":"Boston Latin Sch","SCH_TYPE":"6/7-12","SHARED":" ","COMPLEX":" ","Label":14,"TLT":3,"PL":"Alex","POINT_X":763856.549491,"POINT_Y":2948407.20221},"geometry":{"type":"Point","coordinates":[-71.10169060333597,42.33789866787799]}},{"type":"Feature","properties":{"OBJECTID_1":82,"OBJECTID":88,"BLDG_ID":116,"BLDG_NAME":"Health Careers Academy","ADDRESS":"110 The Fenway","CITY":"Boston","ZIPCODE":"02115","CSP_SCH_ID":1440,"SCH_ID":1440,"SCH_NAME":"Kennedy Health Careers Academy (11-12)","SCH_LABEL":"Kennedy HCA (11-12)","SCH_TYPE":"HS","SHARED":" ","COMPLEX":" ","Label":69,"TLT":4,"PL":"Jonathan","POINT_X":766597.24495,"POINT_Y":2949717.52314},"geometry":{"type":"Point","coordinates":[-71.09153060016712,42.34145866825515]}},{"type":"Feature","properties":{"OBJECTID_1":83,"OBJECTID":89,"BLDG_ID":118,"BLDG_NAME":"Mission Hill Bldg","ADDRESS":"67 Alleghany Street","CITY":"Roxbury","ZIPCODE":"02120","CSP_SCH_ID":1265,"SCH_ID":1265,"SCH_NAME":"Fenway High","SCH_LABEL":"Fenway HS","SCH_TYPE":"HS","SHARED":" ","COMPLEX":" ","Label":46,"TLT":4,"PL":"Jonathan","POINT_X":764548.382701,"POINT_Y":2945746.345},"geometry":{"type":"Point","coordinates":[-71.09917802116335,42.330588277439375]}},{"type":"Feature","properties":{"OBJECTID_1":84,"OBJECTID":90,"BLDG_ID":118,"BLDG_NAME":"Cleveland Bldg","ADDRESS":"11 Charles Street","CITY":"Dorchester","ZIPCODE":"02122","CSP_SCH_ID":1420,"SCH_ID":1420,"SCH_NAME":"Boston Arts Academy","SCH_LABEL":"BAA","SCH_TYPE":"HS","SHARED":"Shared","COMPLEX":" ","Label":9,"TLT":4,"PL":"Jonathan","POINT_X":774619.898,"POINT_Y":2934906.539},"geometry":{"type":"Point","coordinates":[-71.06215256288617,42.300698325177976]}},{"type":"Feature","properties":{"OBJECTID_1":85,"OBJECTID":91,"BLDG_ID":119,"BLDG_NAME":"Mckinley Peterborough Bldg","ADDRESS":"97 Peterborough Street","CITY":"Boston","ZIPCODE":"02215","CSP_SCH_ID":1293,"SCH_ID":1293,"SCH_NAME":"McKinley Prep High Sch","SCH_LABEL":"McKinley Prep HS","SCH_TYPE":"Special","SHARED":" ","COMPLEX":" ","Label":92,"TLT":3,"PL":"Grace","POINT_X":764504.051412,"POINT_Y":2950429.15966},"geometry":{"type":"Point","coordinates":[-71.09926060332542,42.343438669350114]}},{"type":"Feature","properties":{"OBJECTID_1":86,"OBJECTID":92,"BLDG_ID":120,"BLDG_NAME":"Mckinley St Mary'S St Bldg","ADDRESS":"50 St. Mary Street","CITY":"Boston","ZIPCODE":"02215","CSP_SCH_ID":1292,"SCH_ID":1292,"SCH_NAME":"McKinley Middle","SCH_LABEL":"McKinley MS","SCH_TYPE":"Special","SHARED":" ","COMPLEX":" ","Label":91,"TLT":3,"PL":"Grace","POINT_X":762468.913618,"POINT_Y":2952063.25406},"geometry":{"type":"Point","coordinates":[-71.10676060602721,42.347948669445934]}},{"type":"Feature","properties":{"OBJECTID_1":87,"OBJECTID":93,"BLDG_ID":121,"BLDG_NAME":"Curley, J.  Bldg","ADDRESS":"40 Pershing Road","CITY":"Jamaica Plain","ZIPCODE":"02130","CSP_SCH_ID":4272,"SCH_ID":4272,"SCH_NAME":"Curley K-8 (Lower)","SCH_LABEL":"Curley K-8 (Lower)","SCH_TYPE":"K-8","SHARED":" ","COMPLEX":" ","Label":29,"TLT":3,"PL":"Alex","POINT_X":760501.000016,"POINT_Y":2941390},"geometry":{"type":"Point","coordinates":[-71.11421891302389,42.31868547680919]}},{"type":"Feature","properties":{"OBJECTID_1":88,"OBJECTID":94,"BLDG_ID":122,"BLDG_NAME":"Curley, Mary  Bldg","ADDRESS":"493 Centre Street","CITY":"Jamaica Plain","ZIPCODE":"02130","CSP_SCH_ID":4272,"SCH_ID":4272,"SCH_NAME":"Curley K-8 (Upper)","SCH_LABEL":"Curley K-8 (Upper)","SCH_TYPE":"K-8","SHARED":" ","COMPLEX":" ","Label":30,"TLT":3,"PL":"Alex","POINT_X":760844.30248,"POINT_Y":2941327.12032},"geometry":{"type":"Point","coordinates":[-71.11295060607237,42.318508663764156]}},{"type":"Feature","properties":{"OBJECTID_1":89,"OBJECTID":95,"BLDG_ID":124,"BLDG_NAME":"Manning Bldg","ADDRESS":"130 Louders Lane","CITY":"Jamaica Plain","ZIPCODE":"02130","CSP_SCH_ID":4311,"SCH_ID":4311,"SCH_NAME":"Manning Elementary","SCH_LABEL":"Manning","SCH_TYPE":"ES","SHARED":" ","COMPLEX":" ","Label":83,"TLT":2,"PL":"Joel","POINT_X":755850.534732,"POINT_Y":2936596.64227},"geometry":{"type":"Point","coordinates":[-71.13149061100748,42.30558866040691]}},{"type":"Feature","properties":{"OBJECTID_1":90,"OBJECTID":96,"BLDG_ID":126,"BLDG_NAME":"Bates Bldg","ADDRESS":"426 Beech Street","CITY":"Roslindale","ZIPCODE":"02131","CSP_SCH_ID":4081,"SCH_ID":4081,"SCH_NAME":"Bates Elementary","SCH_LABEL":"Bates","SCH_TYPE":"ES","SHARED":" ","COMPLEX":" ","Label":5,"TLT":2,"PL":"Mary","POINT_X":754855.145099,"POINT_Y":2926454.13215},"geometry":{"type":"Point","coordinates":[-71.13533061097898,42.277768655612746]}},{"type":"Feature","properties":{"OBJECTID_1":91,"OBJECTID":97,"BLDG_ID":127,"BLDG_NAME":"Mozart Bldg","ADDRESS":"236 Beech Street","CITY":"Roslindale","ZIPCODE":"02131","CSP_SCH_ID":4082,"SCH_ID":4082,"SCH_NAME":"Mozart Elementary","SCH_LABEL":"Mozart","SCH_TYPE":"ES","SHARED":" ","COMPLEX":" ","Label":98,"TLT":2,"PL":"Mary","POINT_X":753301.878441,"POINT_Y":2927708.44178},"geometry":{"type":"Point","coordinates":[-71.14105061295112,42.28122865606998]}},{"type":"Feature","properties":{"OBJECTID_1":92,"OBJECTID":98,"BLDG_ID":128,"BLDG_NAME":"Russett Road Bldg","ADDRESS":"140 Russett Road","CITY":"West Roxbury","ZIPCODE":"02132","CSP_SCH_ID":4033,"SCH_ID":4033,"SCH_NAME":"Kilmer Upper (4-8)","SCH_LABEL":"Kilmer Upper (4-8)","SCH_TYPE":"K-8","SHARED":" ","COMPLEX":" ","Label":75,"TLT":2,"PL":"Mary","POINT_X":750222.431046,"POINT_Y":2931861.75711},"geometry":{"type":"Point","coordinates":[-71.15236761800149,42.29266065792342]}},{"type":"Feature","properties":{"OBJECTID_1":93,"OBJECTID":99,"BLDG_ID":129,"BLDG_NAME":"Beethoven Bldg","ADDRESS":"5125 Washington Street","CITY":"West Roxbury","ZIPCODE":"02132","CSP_SCH_ID":4030,"SCH_ID":4030,"SCH_NAME":"Beethoven Elementary","SCH_LABEL":"Beethoven (K1-2)","SCH_TYPE":"ES","SHARED":" ","COMPLEX":" ","Label":6,"TLT":2,"PL":"Mary","POINT_X":749247.248709,"POINT_Y":2921208.69169},"geometry":{"type":"Point","coordinates":[-71.15613061658374,42.26343865134909]}},{"type":"Feature","properties":{"OBJECTID_1":94,"OBJECTID":100,"BLDG_ID":130,"BLDG_NAME":"Kilmer Bldg","ADDRESS":"35 Baker Street","CITY":"West Roxbury","ZIPCODE":"02132","CSP_SCH_ID":4031,"SCH_ID":4031,"SCH_NAME":"Kilmer Lower (K1-3)","SCH_LABEL":"Kilmer Lower (K1-3)","SCH_TYPE":"K-8","SHARED":" ","COMPLEX":" ","Label":74,"TLT":2,"PL":"Mary","POINT_X":747492.000004,"POINT_Y":2924280.00002},"geometry":{"type":"Point","coordinates":[-71.16257012574074,42.27188581980127]}},{"type":"Feature","properties":{"OBJECTID_1":95,"OBJECTID":101,"BLDG_ID":131,"BLDG_NAME":"West Roxbury Ed. Bldg","ADDRESS":"1205 V.F.W. Parkway","CITY":"West Roxbury","ZIPCODE":"02132","CSP_SCH_ID":1253,"SCH_ID":1253,"SCH_NAME":"Urban Science Academy","SCH_LABEL":"Urban Science Academy","SCH_TYPE":"HS","SHARED":"Shared","COMPLEX":"West Roxbury EC","Label":127,"TLT":2,"PL":"Joel","POINT_X":744291.893473,"POINT_Y":2928051.28111},"geometry":{"type":"Point","coordinates":[-71.17434062400517,42.28226865420588]}},{"type":"Feature","properties":{"OBJECTID_1":96,"OBJECTID":102,"BLDG_ID":132,"BLDG_NAME":"Shaw, R.G.  Bldg","ADDRESS":"20 Mt. Vernon Street","CITY":"West Roxbury","ZIPCODE":"02132","CSP_SCH_ID":4331,"SCH_ID":4331,"SCH_NAME":"Lyndon K-8","SCH_LABEL":"Lyndon K-8","SCH_TYPE":"K-8","SHARED":" ","COMPLEX":" ","Label":79,"TLT":2,"PL":"Joel","POINT_X":748612.367525,"POINT_Y":2928334.20882},"geometry":{"type":"Point","coordinates":[-71.15837061860869,42.28299865578428]}},{"type":"Feature","properties":{"OBJECTID_1":97,"OBJECTID":103,"BLDG_ID":133,"BLDG_NAME":"Edison Bldg","ADDRESS":"60 Glenmont Road","CITY":"Brighton","ZIPCODE":"02135","CSP_SCH_ID":4178,"SCH_ID":4178,"SCH_NAME":"Edison K-8","SCH_LABEL":"Edison K-8","SCH_TYPE":"K-8","SHARED":" ","COMPLEX":" ","Label":37,"TLT":3,"PL":"Alex","POINT_X":748029.00602,"POINT_Y":2951141.15716},"geometry":{"type":"Point","coordinates":[-71.16019062267951,42.34558866728314]}},{"type":"Feature","properties":{"OBJECTID_1":98,"OBJECTID":104,"BLDG_ID":135,"BLDG_NAME":"Lyon, Mary  Bldg","ADDRESS":"50 Beechcroft Street","CITY":"Brighton","ZIPCODE":"02135","CSP_SCH_ID":4171,"SCH_ID":4171,"SCH_NAME":"Lyon K-8","SCH_LABEL":"Lyon K-8","SCH_TYPE":"K-12","SHARED":" ","COMPLEX":" ","Label":80,"TLT":4,"PL":"Jonathan","POINT_X":747666.93002,"POINT_Y":2953140.41771},"geometry":{"type":"Point","coordinates":[-71.16150062364638,42.35107866840413]}},{"type":"Feature","properties":{"OBJECTID_1":99,"OBJECTID":105,"BLDG_ID":136,"BLDG_NAME":"Garfield Bldg","ADDRESS":"95 Beechcroft Street","CITY":"Brighton","ZIPCODE":"02135","CSP_SCH_ID":1171,"SCH_ID":1171,"SCH_NAME":"Lyon, Mary 9-12","SCH_LABEL":"Lyon 9-12","SCH_TYPE":"K-12","SHARED":" ","COMPLEX":" ","Label":81,"TLT":4,"PL":"Jonathan","POINT_X":747865.437188,"POINT_Y":2953523.85419},"geometry":{"type":"Point","coordinates":[-71.16076062369531,42.35212866780904]}},{"type":"Feature","properties":{"OBJECTID_1":100,"OBJECTID":106,"BLDG_ID":137,"BLDG_NAME":"Winship Bldg","ADDRESS":"54 Dighton Street","CITY":"Brighton","ZIPCODE":"02135","CSP_SCH_ID":4173,"SCH_ID":4173,"SCH_NAME":"Winship Elementary","SCH_LABEL":"Winship","SCH_TYPE":"ES","SHARED":" ","COMPLEX":" ","Label":131,"TLT":3,"PL":"Alex","POINT_X":749335.000006,"POINT_Y":2951880.00001},"geometry":{"type":"Point","coordinates":[-71.15534859976619,42.347601703488074]}},{"type":"Feature","properties":{"OBJECTID_1":101,"OBJECTID":107,"BLDG_ID":139,"BLDG_NAME":"E. Greenwood Bldg","ADDRESS":"612 Metropolitan Avenue","CITY":"Hyde Park","ZIPCODE":"02136","CSP_SCH_ID":1230,"SCH_ID":1230,"SCH_NAME":"Another Course to College","SCH_LABEL":"ACC","SCH_TYPE":"HS","SHARED":" ","COMPLEX":" ","Label":3,"TLT":4,"PL":"Anthony","POINT_X":759585.471,"POINT_Y":2921916.774},"geometry":{"type":"Point","coordinates":[-71.11792785432263,42.26526119239755]}},{"type":"Feature","properties":{"OBJECTID_1":102,"OBJECTID":108,"BLDG_ID":140,"BLDG_NAME":"Brighton High School Bldg","ADDRESS":"25 Warren Street","CITY":"Brighton","ZIPCODE":"02135","CSP_SCH_ID":1040,"SCH_ID":1040,"SCH_NAME":"Brighton High","SCH_LABEL":"Brighton HS","SCH_TYPE":"HS","SHARED":" ","COMPLEX":" ","Label":16,"TLT":4,"PL":"Jonathan","POINT_X":751997.598536,"POINT_Y":2952432.80174},"geometry":{"type":"Point","coordinates":[-71.14549061780922,42.34908866829426]}},{"type":"Feature","properties":{"OBJECTID_1":103,"OBJECTID":109,"BLDG_ID":141,"BLDG_NAME":"Baldwin Bldg","ADDRESS":"121 Corey Road","CITY":"Brighton","ZIPCODE":"02135","CSP_SCH_ID":4621,"SCH_ID":4621,"SCH_NAME":"Baldwin ELPA","SCH_LABEL":"Baldwin ELPA","SCH_TYPE":"ELC","SHARED":" ","COMPLEX":" ","Label":4,"TLT":3,"PL":"Alex","POINT_X":753354.609161,"POINT_Y":2949869.27556},"geometry":{"type":"Point","coordinates":[-71.14051061722544,42.342038668075595]}},{"type":"Feature","properties":{"OBJECTID_1":104,"OBJECTID":110,"BLDG_ID":142,"BLDG_NAME":"Jackson Mann Bldg","ADDRESS":"40 Armington Street","CITY":"Allston","ZIPCODE":"02134","CSP_SCH_ID":4610,"SCH_ID":4610,"SCH_NAME":"Horace Mann","SCH_LABEL":"Horace Mann K-12","SCH_TYPE":"Special","SHARED":"Shared","COMPLEX":" ","Label":65,"TLT":3,"PL":"Alex","POINT_X":754098.776714,"POINT_Y":2953523.97847},"geometry":{"type":"Point","coordinates":[-71.13770061590884,42.352058669048986]}},{"type":"Feature","properties":{"OBJECTID_1":105,"OBJECTID":111,"BLDG_ID":142,"BLDG_NAME":"Jackson Mann Bldg","ADDRESS":"40 Armington Street","CITY":"Allston","ZIPCODE":"02134","CSP_SCH_ID":4620,"SCH_ID":4620,"SCH_NAME":"Jackson/Mann K-8","SCH_LABEL":"Jackson/Mann K-8","SCH_TYPE":"K-8","SHARED":"Shared","COMPLEX":" ","Label":68,"TLT":3,"PL":"Alex","POINT_X":754098.776714,"POINT_Y":2953523.97847},"geometry":{"type":"Point","coordinates":[-71.13770061590884,42.352058669048986]}},{"type":"Feature","properties":{"OBJECTID_1":106,"OBJECTID":112,"BLDG_ID":89,"BLDG_NAME":"Hyde Park EC","ADDRESS":"655 Metropolitan Ave","CITY":"Hyde Park","ZIPCODE":"02136","CSP_SCH_ID":1285,"SCH_ID":1285,"SCH_NAME":"New Mission High","SCH_LABEL":"New Mission HS","SCH_TYPE":"6/7-12","SHARED":"Shared","COMPLEX":" ","Label":100,"TLT":4,"PL":"Anthony","POINT_X":759643.696681,"POINT_Y":2921172.19422},"geometry":{"type":"Point","coordinates":[-71.11791035067432,42.2624191009593]}},{"type":"Feature","properties":{"OBJECTID_1":107,"OBJECTID":113,"BLDG_ID":144,"BLDG_NAME":"Gardner Bldg","ADDRESS":"30 Athol Street","CITY":"Allston","ZIPCODE":"02134","CSP_SCH_ID":4160,"SCH_ID":4160,"SCH_NAME":"Gardner K-8","SCH_LABEL":"Gardner K-8","SCH_TYPE":"K-8","SHARED":" ","COMPLEX":" ","Label":48,"TLT":3,"PL":"Alex","POINT_X":755055.555883,"POINT_Y":2956702.22539},"geometry":{"type":"Point","coordinates":[-71.13411061616895,42.36076867126737]}},{"type":"Feature","properties":{"OBJECTID_1":108,"OBJECTID":114,"BLDG_ID":145,"BLDG_NAME":"Ohrenberger Bldg","ADDRESS":"175 West Boundary Road","CITY":"West Roxbury","ZIPCODE":"02132","CSP_SCH_ID":4410,"SCH_ID":4410,"SCH_NAME":"Ohrenberger 3-8","SCH_LABEL":"Ohrenberger 3-8","SCH_TYPE":"K-8","SHARED":" ","COMPLEX":" ","Label":104,"TLT":2,"PL":"Mary","POINT_X":751016.119559,"POINT_Y":2920239.24526},"geometry":{"type":"Point","coordinates":[-71.1496106142466,42.26075865213715]}},{"type":"Feature","properties":{"OBJECTID_1":109,"OBJECTID":115,"BLDG_ID":146,"BLDG_NAME":"Everett Bldg","ADDRESS":"71 Pleasant Street","CITY":"Dorchester","ZIPCODE":"02125","CSP_SCH_ID":4140,"SCH_ID":4140,"SCH_NAME":"Everett Elementary","SCH_LABEL":"Everett","SCH_TYPE":"ES","SHARED":" ","COMPLEX":" ","Label":44,"TLT":1,"PL":"Christine","POINT_X":775235.999998,"POINT_Y":2939640},"geometry":{"type":"Point","coordinates":[-71.05976976012545,42.31368761178382]}},{"type":"Feature","properties":{"OBJECTID_1":110,"OBJECTID":116,"BLDG_ID":148,"BLDG_NAME":"Shaw, P.A. Bldg","ADDRESS":"429 Norfolk Street","CITY":"Dorchester","ZIPCODE":"02124","CSP_SCH_ID":4670,"SCH_ID":4670,"SCH_NAME":"P.A. Shaw (K1-3)","SCH_LABEL":"P.A. Shaw (K1-3)","SCH_TYPE":"ES","SHARED":" ","COMPLEX":" ","Label":107,"TLT":2,"PL":"Kelly","POINT_X":767969.999991,"POINT_Y":2928099.99999},"geometry":{"type":"Point","coordinates":[-71.08684032492766,42.28212094476627]}},{"type":"Feature","properties":{"OBJECTID_1":111,"OBJECTID":117,"BLDG_ID":149,"BLDG_NAME":"Greenwood, S Bldg","ADDRESS":"189 Glenway Street","CITY":"Dorchester","ZIPCODE":"02121","CSP_SCH_ID":4130,"SCH_ID":4130,"SCH_NAME":"Greenwood Sarah K-8","SCH_LABEL":"S. Greenwood K-8","SCH_TYPE":"K-8","SHARED":" ","COMPLEX":" ","Label":50,"TLT":2,"PL":"Joel","POINT_X":769615.999992,"POINT_Y":2933369.99999},"geometry":{"type":"Point","coordinates":[-71.08066201680158,42.2965601131686]}},{"type":"Feature","properties":{"OBJECTID_1":112,"OBJECTID":118,"BLDG_ID":150,"BLDG_NAME":"Burke High School Bldg","ADDRESS":"60 Washington Street","CITY":"Dorchester","ZIPCODE":"02121","CSP_SCH_ID":1120,"SCH_ID":1120,"SCH_NAME":"Burke High","SCH_LABEL":"Burke HS","SCH_TYPE":"HS","SHARED":" ","COMPLEX":" ","Label":18,"TLT":4,"PL":"Anthony","POINT_X":769337.072736,"POINT_Y":2937107.129},"geometry":{"type":"Point","coordinates":[-71.08162523570914,42.30681876066501]}},{"type":"Feature","properties":{"OBJECTID_1":113,"OBJECTID":119,"BLDG_ID":152,"BLDG_NAME":"Dever Bldg","ADDRESS":"325 Mt. Vernon Street","CITY":"Dorchester","ZIPCODE":"02125","CSP_SCH_ID":4100,"SCH_ID":4100,"SCH_NAME":"Dever Elementary","SCH_LABEL":"Dever","SCH_TYPE":"ES","SHARED":" ","COMPLEX":" ","Label":32,"TLT":1,"PL":"Christine","POINT_X":779834.141474,"POINT_Y":2941100.41289},"geometry":{"type":"Point","coordinates":[-71.04274058324233,42.31762866625126]}},{"type":"Feature","properties":{"OBJECTID_1":114,"OBJECTID":120,"BLDG_ID":153,"BLDG_NAME":"Mccormack Bldg","ADDRESS":"315 Mt. Vernon Street","CITY":"Dorchester","ZIPCODE":"02125","CSP_SCH_ID":2190,"SCH_ID":2190,"SCH_NAME":"McCormack Middle","SCH_LABEL":"McCormack MS","SCH_TYPE":"MS","SHARED":" ","COMPLEX":" ","Label":88,"TLT":1,"PL":"Christine","POINT_X":779627.818818,"POINT_Y":2941245.07808},"geometry":{"type":"Point","coordinates":[-71.04350058255397,42.31802866552952]}},{"type":"Feature","properties":{"OBJECTID_1":115,"OBJECTID":121,"BLDG_ID":156,"BLDG_NAME":"Condon Bldg","ADDRESS":"200 D Street","CITY":"South Boston","ZIPCODE":"02127","CSP_SCH_ID":4630,"SCH_ID":4630,"SCH_NAME":"Condon K-8","SCH_LABEL":"Condon K-8","SCH_TYPE":"K-8","SHARED":" ","COMPLEX":" ","Label":27,"TLT":1,"PL":"Christine","POINT_X":777250,"POINT_Y":2948520.00001},"geometry":{"type":"Point","coordinates":[-71.05215122185508,42.33802589334743]}},{"type":"Feature","properties":{"OBJECTID_1":116,"OBJECTID":122,"BLDG_ID":998,"BLDG_NAME":"New Roosevelt Bldg","ADDRESS":"30 Millstone Road","CITY":"Hyde Park","ZIPCODE":"02136","CSP_SCH_ID":4193,"SCH_ID":4193,"SCH_NAME":"Roosevelt K-8 (K1-1)","SCH_LABEL":"Roosevelt Lower (K1-1)","SCH_TYPE":"K-8","SHARED":" ","COMPLEX":" ","Label":113,"TLT":2,"PL":"Joel","POINT_X":755586.978635,"POINT_Y":2910470.1729},"geometry":{"type":"Point","coordinates":[-71.13288060806134,42.23389864702128]}},{"type":"Feature","properties":{"OBJECTID_1":117,"OBJECTID":123,"BLDG_ID":2,"BLDG_NAME":"Bradley Bldg\r\n","ADDRESS":"110 Beachview Road","CITY":"East Boston","ZIPCODE":"02128","CSP_SCH_ID":4062,"SCH_ID":4062,"SCH_NAME":"Bradley Elementary","SCH_LABEL":"Bradley","SCH_TYPE":"ES","SHARED":" ","COMPLEX":" ","Label":15,"TLT":3,"PL":"Grace","POINT_X":789872.444619,"POINT_Y":2968119.68196},"geometry":{"type":"Point","coordinates":[-71.00504507599943,42.39161617945865]}},{"type":"Feature","properties":{"OBJECTID_1":118,"OBJECTID":124,"BLDG_ID":111,"BLDG_NAME":"Hennigan Bldg","ADDRESS":"200 Heath Street","CITY":"Jamaica Plain","ZIPCODE":"02130","CSP_SCH_ID":4230,"SCH_ID":4230,"SCH_NAME":"Hennigan K-8","SCH_LABEL":"Hennigan K-8","SCH_TYPE":"K-8","SHARED":"Shared","COMPLEX":" ","Label":59,"TLT":3,"PL":"Alex","POINT_X":762465.838572,"POINT_Y":2943926.85873},"geometry":{"type":"Point","coordinates":[-71.10691069018257,42.325622122989714]}},{"type":"Feature","properties":{"OBJECTID_1":119,"OBJECTID":125,"BLDG_ID":76,"BLDG_NAME":"Mattapan Eec Bldg","ADDRESS":"108 Babson Street","CITY":"Mattapan","ZIPCODE":"02126","CSP_SCH_ID":4440,"SCH_ID":4440,"SCH_NAME":"Ellison/ Parks ELC","SCH_LABEL":"Ellison/ Parks ELC","SCH_TYPE":"ELC","SHARED":" ","COMPLEX":" ","Label":42,"TLT":2,"PL":"Kelly","POINT_X":766621.396246,"POINT_Y":2924328.19243},"geometry":{"type":"Point","coordinates":[-71.09189059700259,42.27178865474239]}},{"type":"Feature","properties":{"OBJECTID_1":120,"OBJECTID":126,"BLDG_ID":106,"BLDG_NAME":"Greater Egleston High","ADDRESS":"80 School Street","CITY":"Roxbury","ZIPCODE":"02119","CSP_SCH_ID":1430,"SCH_ID":1430,"SCH_NAME":"Greater Egleston High","SCH_LABEL":"Greater Egleston HS","SCH_TYPE":"HS","SHARED":" ","COMPLEX":" ","Label":49,"TLT":4,"PL":"Freddie","POINT_X":764546.119796,"POINT_Y":2939748.03389},"geometry":{"type":"Point","coordinates":[-71.09929060184346,42.314128662932774]}},{"type":"Feature","properties":{"OBJECTID_1":121,"OBJECTID":128,"BLDG_ID":123,"BLDG_NAME":"Agassiz Building","ADDRESS":"20 Child St","CITY":"Jamaica Plain","ZIPCODE":"02130","CSP_SCH_ID":4285,"SCH_ID":4285,"SCH_NAME":"Mission Hill K-8","SCH_LABEL":"Mission Hill K-8","SCH_TYPE":"K-8","SHARED":"Shared","COMPLEX":" ","Label":97,"TLT":2,"PL":"Mary","POINT_X":760615.274078,"POINT_Y":2937144.85602},"geometry":{"type":"Point","coordinates":[-71.11386744155622,42.30703515331264]}},{"type":"Feature","properties":{"OBJECTID_1":122,"OBJECTID":129,"BLDG_ID":123,"BLDG_NAME":"Agassiz Building","ADDRESS":"20 Child St","CITY":"Jamaica Plain","ZIPCODE":"02130","CSP_SCH_ID":1053,"SCH_ID":1053,"SCH_NAME":"Margarita Muniz Academy","SCH_LABEL":"Muniz Academy","SCH_TYPE":"HS","SHARED":"Shared","COMPLEX":" ","Label":84,"TLT":4,"PL":"Jonathan","POINT_X":760448.702561,"POINT_Y":2937207.19875},"geometry":{"type":"Point","coordinates":[-71.11448218532625,42.30720829286413]}},{"type":"Feature","properties":{"OBJECTID_1":123,"OBJECTID":130,"BLDG_ID":30,"BLDG_NAME":"Emerson Building","ADDRESS":"6 Shirley St","CITY":"Roxbury","ZIPCODE":"02119","CSP_SCH_ID":4123,"SCH_ID":4123,"SCH_NAME":"Dudley Street Neighborhood Charter School","SCH_LABEL":"Dudley St NCS","SCH_TYPE":"ES","SHARED":" ","COMPLEX":" ","Label":34,"TLT":1,"PL":"Marice","POINT_X":771541.56295,"POINT_Y":2942624.04362},"geometry":{"type":"Point","coordinates":[-71.07337366277203,42.32192747253831]}},{"type":"Feature","properties":{"OBJECTID_1":124,"OBJECTID":131,"BLDG_ID":114,"BLDG_NAME":"Farragut Building","ADDRESS":"10 Fenwood Road","CITY":"Jamaica Plain","ZIPCODE":"02115","CSP_SCH_ID":1441,"SCH_ID":1441,"SCH_NAME":"Kennedy Health Careers Academy (9-10)","SCH_LABEL":"Kennedy HCA (9-10)","SCH_TYPE":"HS","SHARED":" ","COMPLEX":" ","Label":70,"TLT":4,"PL":"Jonathan","POINT_X":762545.712954,"POINT_Y":2946955.3512},"geometry":{"type":"Point","coordinates":[-71.10656366480434,42.33393142589264]}},{"type":"Feature","properties":{"OBJECTID_1":125,"OBJECTID":132,"BLDG_ID":89,"BLDG_NAME":"Hyde Park EC","ADDRESS":"655 Metropolitan Ave","CITY":"Hyde Park","ZIPCODE":"02136","CSP_SCH_ID":1195,"SCH_ID":1195,"SCH_NAME":"Community Leadership Academy","SCH_LABEL":"BCLA","SCH_TYPE":"HS","SHARED":"Shared","COMPLEX":" ","Label":26,"TLT":4,"PL":"Anthony","POINT_X":759599.764602,"POINT_Y":2921175.94527},"geometry":{"type":"Point","coordinates":[-71.11788606569694,42.26322789711886]}},{"type":"Feature","properties":{"OBJECTID_1":126,"OBJECTID":1335,"BLDG_ID":1000,"BLDG_NAME":"Eliot Bldg","ADDRESS":"173 Salem Street","CITY":"Boston","ZIPCODE":"02113","CSP_SCH_ID":4381,"SCH_ID":4381,"SCH_NAME":"Eliot K-8","SCH_LABEL":"Eliot K-8","SCH_TYPE":"K-8","SHARED":" ","COMPLEX":" ","Label":40,"TLT":1,"PL":"Marice","POINT_X":776462.973,"POINT_Y":2958675.531},"geometry":{"type":"Point","coordinates":[-71.05487078538347,42.36591095888185]}},{"type":"Feature","properties":{"OBJECTID_1":127,"OBJECTID":1736,"BLDG_ID":52,"BLDG_NAME":"Higginson Bldg","ADDRESS":"160 Harrishof Street","CITY":"Roxbury","ZIPCODE":"02119","CSP_SCH_ID":4241,"SCH_ID":4241,"SCH_NAME":"Higginson Elementary (K1-2)","SCH_LABEL":"Higginson (K1-2)","SCH_TYPE":"ES","SHARED":" ","COMPLEX":" ","Label":61,"TLT":1,"PL":"Marice","POINT_X":766503.829431,"POINT_Y":2941044.29029},"geometry":{"type":"Point","coordinates":[-71.09202957055001,42.31766018938924]}},{"type":"Feature","properties":{"OBJECTID_1":128,"OBJECTID":2136,"BLDG_ID":0,"BLDG_NAME":"Alighieri Bldg","ADDRESS":"37 Gove St.","CITY":"East Boston","ZIPCODE":"02128","CSP_SCH_ID":4321,"SCH_ID":4321,"SCH_NAME":"Alighieri Montessori","SCH_LABEL":"Alighieri","SCH_TYPE":"ES","SHARED":" ","COMPLEX":" ","Label":2,"TLT":1,"PL":"Marice","POINT_X":781025.956811,"POINT_Y":2960764.01781},"geometry":{"type":"Point","coordinates":[-71.03794008198359,42.37156843613758]}},{"type":"Feature","properties":{"OBJECTID_1":129,"OBJECTID":2938,"BLDG_ID":0,"BLDG_NAME":"Church Street Bldg","ADDRESS":"20 Church Street","CITY":"Boston","ZIPCODE":"02116","CSP_SCH_ID":1215,"SCH_ID":1215,"SCH_NAME":"Boston Adult Tech Acad","SCH_LABEL":"BATA","SCH_TYPE":"Special","SHARED":" ","COMPLEX":" ","Label":8,"TLT":4,"PL":"Freddie","POINT_X":772904.812815,"POINT_Y":2952412.93842},"geometry":{"type":"Point","coordinates":[-71.06814953601999,42.34876970981879]}},{"type":"Feature","properties":{"OBJECTID_1":130,"OBJECTID":2946,"BLDG_ID":139,"BLDG_NAME":"Taft Bldg","ADDRESS":"20 Warren Street","CITY":"Brighton","ZIPCODE":"02135","CSP_SCH_ID":1470,"SCH_ID":1470,"SCH_NAME":"Boston Green Academy","SCH_LABEL":"Boston Green Academy","SCH_TYPE":"6/7-12","SHARED":" ","COMPLEX":" ","Label":11,"TLT":4,"PL":"Jonathan","POINT_X":751868.385102,"POINT_Y":2952924.99053},"geometry":{"type":"Point","coordinates":[-71.14596105872064,42.35044072468178]}},{"type":"Feature","properties":{"OBJECTID_1":131,"OBJECTID":3346,"BLDG_ID":150,"BLDG_NAME":"Dearborn Bldg","ADDRESS":"35 Greenville Street","CITY":"Roxbury","ZIPCODE":"02119","CSP_SCH_ID":1260,"SCH_ID":1260,"SCH_NAME":"Dearborn Academy","SCH_LABEL":"Dearborn Academy","SCH_TYPE":"6/7-12","SHARED":" ","COMPLEX":" ","Label":31,"TLT":4,"PL":"Anthony","POINT_X":769605.963,"POINT_Y":2944154.655},"geometry":{"type":"Point","coordinates":[-71.08050441034351,42.32615284709589]}}]}